[
  {
    "name": "DE",
    "country_code": "DE",
    "count": 3502,
    "lat": 50.43060459315625,
    "lon": 9.491517461696917,
    "institutions": [
      {
        "count": 491,
        "name": "Johannes Gutenberg University Mainz",
        "lat": 49.98419,
        "lon": 8.2791,
        "id": "https://openalex.org/I197323543"
      },
      {
        "count": 348,
        "name": "University of G\u00f6ttingen",
        "lat": 51.53443,
        "lon": 9.93228,
        "id": "https://openalex.org/I74656192"
      },
      {
        "count": 287,
        "name": "GSI Helmholtz Centre for Heavy Ion Research",
        "lat": 49.87166976928711,
        "lon": 8.650270462036133,
        "id": "https://openalex.org/I169556180"
      },
      {
        "count": 211,
        "name": "TU Dortmund University",
        "lat": 51.51493835449219,
        "lon": 7.466000080108643,
        "id": "https://openalex.org/I200332995"
      },
      {
        "count": 185,
        "name": "Ludwig-Maximilians-Universit\u00e4t M\u00fcnchen",
        "lat": 48.13743,
        "lon": 11.57549,
        "id": "https://openalex.org/I8204097"
      },
      {
        "count": 183,
        "name": "University of Bonn",
        "lat": 50.73438,
        "lon": 7.09549,
        "id": "https://openalex.org/I135140700"
      },
      {
        "count": 143,
        "name": "Heidelberg University",
        "lat": 49.40768,
        "lon": 8.69079,
        "id": "https://openalex.org/I223822909"
      },
      {
        "count": 104,
        "name": "Max Planck Institute for Evolutionary Anthropology",
        "lat": 51.320556640625,
        "lon": 12.394444465637207,
        "id": "https://openalex.org/I4210118560"
      },
      {
        "count": 93,
        "name": "University of Freiburg",
        "lat": 47.99589920043945,
        "lon": 7.852220058441162,
        "id": "https://openalex.org/I161046081"
      },
      {
        "count": 91,
        "name": "Max Planck Institute for Extraterrestrial Physics",
        "lat": 48.26166534423828,
        "lon": 11.671667098999023,
        "id": "https://openalex.org/I4210091772"
      },
      {
        "count": 76,
        "name": "Goethe University Frankfurt",
        "lat": 50.11552,
        "lon": 8.68417,
        "id": "https://openalex.org/I114090438"
      },
      {
        "count": 68,
        "name": "Justus-Liebig-Universit\u00e4t Gie\u00dfen",
        "lat": 50.58727,
        "lon": 8.67554,
        "id": "https://openalex.org/I200763008"
      },
      {
        "count": 64,
        "name": "European Southern Observatory",
        "lat": 48.263275146484375,
        "lon": 11.671653747558594,
        "id": "https://openalex.org/I1321434546"
      },
      {
        "count": 59,
        "name": "Technical University of Munich",
        "lat": 48.13743,
        "lon": 11.57549,
        "id": "https://openalex.org/I62916508"
      },
      {
        "count": 57,
        "name": "Alfred-Wegener-Institut Helmholtz-Zentrum f\u00fcr Polar- und Meeresforschung",
        "lat": 53.53615188598633,
        "lon": 8.59298038482666,
        "id": "https://openalex.org/I127251866"
      },
      {
        "count": 45,
        "name": "University of Potsdam",
        "lat": 52.39886,
        "lon": 13.06566,
        "id": "https://openalex.org/I176453806"
      },
      {
        "count": 45,
        "name": "Karlsruhe Institute of Technology",
        "lat": 49.00937,
        "lon": 8.40444,
        "id": "https://openalex.org/I102335020"
      },
      {
        "count": 36,
        "name": "Max Planck Institute for Astronomy",
        "lat": 49.40768,
        "lon": 8.69079,
        "id": "https://openalex.org/I4210109156"
      },
      {
        "count": 34,
        "name": "Deutsches Elektronen-Synchrotron DESY",
        "lat": 53.55073165893555,
        "lon": 9.993020057678223,
        "id": "https://openalex.org/I2801876189"
      },
      {
        "count": 33,
        "name": "TU Dresden",
        "lat": 51.05089,
        "lon": 13.73832,
        "id": "https://openalex.org/I78650965"
      },
      {
        "count": 32,
        "name": "Potsdam Institute for Climate Impact Research",
        "lat": 52.381282806396484,
        "lon": 13.064151763916016,
        "id": "https://openalex.org/I60200437"
      },
      {
        "count": 29,
        "name": "Universit\u00e4t Hamburg",
        "lat": 53.55073,
        "lon": 9.99302,
        "id": "https://openalex.org/I159176309"
      },
      {
        "count": 25,
        "name": "Technical University of Darmstadt",
        "lat": 49.87167,
        "lon": 8.65027,
        "id": "https://openalex.org/I31512782"
      },
      {
        "count": 24,
        "name": "Max Planck Institute for Nuclear Physics",
        "lat": 49.40768051147461,
        "lon": 8.690790176391602,
        "id": "https://openalex.org/I4210156266"
      },
      {
        "count": 22,
        "name": "German Centre for Integrative Biodiversity Research",
        "lat": 51.33962,
        "lon": 12.37129,
        "id": "https://openalex.org/I2801030728"
      },
      {
        "count": 20,
        "name": "Leibniz Association",
        "lat": 52.52437,
        "lon": 13.41053,
        "id": "https://openalex.org/I315704651"
      },
      {
        "count": 19,
        "name": "University of W\u00fcrzburg",
        "lat": 49.79391,
        "lon": 9.95121,
        "id": "https://openalex.org/I25974101"
      },
      {
        "count": 19,
        "name": "University of Siegen",
        "lat": 50.87480926513672,
        "lon": 8.024310111999512,
        "id": "https://openalex.org/I206895457"
      },
      {
        "count": 19,
        "name": "University of Stuttgart",
        "lat": 48.782318115234375,
        "lon": 9.177020072937012,
        "id": "https://openalex.org/I100066346"
      },
      {
        "count": 18,
        "name": "Max Planck Institute for Meteorology",
        "lat": 53.56779479980469,
        "lon": 9.975467681884766,
        "id": "https://openalex.org/I4210163131"
      },
      {
        "count": 18,
        "name": "University of Bremen",
        "lat": 53.07582,
        "lon": 8.80717,
        "id": "https://openalex.org/I180437899"
      },
      {
        "count": 18,
        "name": "Folkwang University of the Arts",
        "lat": 51.45657,
        "lon": 7.01228,
        "id": "https://openalex.org/I2800742272"
      },
      {
        "count": 16,
        "name": "Humboldt-Universit\u00e4t zu Berlin",
        "lat": 52.52436828613281,
        "lon": 13.410530090332031,
        "id": "https://openalex.org/I39343248"
      },
      {
        "count": 15,
        "name": "Helmholtz-Institute Ulm",
        "lat": 48.39841079711914,
        "lon": 9.99155044555664,
        "id": "https://openalex.org/I4210129763"
      },
      {
        "count": 14,
        "name": "University of T\u00fcbingen",
        "lat": 48.52265930175781,
        "lon": 9.052220344543457,
        "id": "https://openalex.org/I8087733"
      },
      {
        "count": 14,
        "name": "University of Cologne",
        "lat": 50.93333,
        "lon": 6.95,
        "id": "https://openalex.org/I180923762"
      },
      {
        "count": 14,
        "name": "Max Planck Institute for Radio Astronomy",
        "lat": 50.734378814697266,
        "lon": 7.095489978790283,
        "id": "https://openalex.org/I4210158571"
      },
      {
        "count": 13,
        "name": "Forschungszentrum J\u00fclich",
        "lat": 50.92149,
        "lon": 6.36267,
        "id": "https://openalex.org/I171892758"
      },
      {
        "count": 12,
        "name": "Friedrich Schiller University Jena",
        "lat": 50.92878,
        "lon": 11.5899,
        "id": "https://openalex.org/I76198965"
      },
      {
        "count": 12,
        "name": "Universit\u00e4t Trier",
        "lat": 49.75564956665039,
        "lon": 6.639349937438965,
        "id": "https://openalex.org/I89864525"
      },
      {
        "count": 11,
        "name": "Ruhr University Bochum",
        "lat": 51.48165,
        "lon": 7.21648,
        "id": "https://openalex.org/I904495901"
      },
      {
        "count": 11,
        "name": "Senckenberg Museum f\u00fcr Naturkunde G\u00f6rlitz",
        "lat": 51.15518,
        "lon": 14.98853,
        "id": "https://openalex.org/I4210146314"
      },
      {
        "count": 11,
        "name": "Martin Luther University Halle-Wittenberg",
        "lat": 51.48158,
        "lon": 11.97947,
        "id": "https://openalex.org/I68956291"
      },
      {
        "count": 10,
        "name": "Helmholtz Institute Jena",
        "lat": 50.93455505371094,
        "lon": 11.58069896697998,
        "id": "https://openalex.org/I1285013897"
      },
      {
        "count": 10,
        "name": "Leibniz Institute for Astrophysics Potsdam",
        "lat": 52.398860931396484,
        "lon": 13.06566047668457,
        "id": "https://openalex.org/I2799713863"
      },
      {
        "count": 9,
        "name": "Max Planck Institute for Astrophysics",
        "lat": 48.24896,
        "lon": 11.65101,
        "id": "https://openalex.org/I4210103661"
      },
      {
        "count": 9,
        "name": "Excellence Cluster Origins",
        "lat": 48.248958587646484,
        "lon": 11.651009559631348,
        "id": "https://openalex.org/I4210099156"
      },
      {
        "count": 9,
        "name": "Universit\u00e4tsmedizin Greifswald",
        "lat": 54.09311,
        "lon": 13.38786,
        "id": "https://openalex.org/I2799318839"
      },
      {
        "count": 8,
        "name": "University Medical Center Hamburg-Eppendorf",
        "lat": 53.55073165893555,
        "lon": 9.993020057678223,
        "id": "https://openalex.org/I4210108711"
      },
      {
        "count": 8,
        "name": "Friedrich-Alexander-Universit\u00e4t Erlangen-N\u00fcrnberg",
        "lat": 49.59099,
        "lon": 11.00783,
        "id": "https://openalex.org/I181369854"
      },
      {
        "count": 8,
        "name": "University of Bamberg",
        "lat": 49.89873123168945,
        "lon": 10.900670051574707,
        "id": "https://openalex.org/I94626330"
      },
      {
        "count": 7,
        "name": "University of Duisburg-Essen",
        "lat": 51.45656967163086,
        "lon": 7.012279987335205,
        "id": "https://openalex.org/I62318514"
      },
      {
        "count": 7,
        "name": "German Climate Computing Centre",
        "lat": 53.55073165893555,
        "lon": 9.993020057678223,
        "id": "https://openalex.org/I2800289517"
      },
      {
        "count": 7,
        "name": "University of Konstanz",
        "lat": 47.66033172607422,
        "lon": 9.175820350646973,
        "id": "https://openalex.org/I189712700"
      },
      {
        "count": 7,
        "name": "Kiel University",
        "lat": 54.32133,
        "lon": 10.13489,
        "id": "https://openalex.org/I32021983"
      },
      {
        "count": 7,
        "name": "Deutsches Zentrum f\u00fcr Luft- und Raumfahrt e. V. (DLR)",
        "lat": 50.93333053588867,
        "lon": 6.949999809265137,
        "id": "https://openalex.org/I2898391981"
      },
      {
        "count": 7,
        "name": "Leibniz Institute for Plasma Science and Technology",
        "lat": 54.09172821044922,
        "lon": 13.401788711547852,
        "id": "https://openalex.org/I4210089414"
      },
      {
        "count": 6,
        "name": "Technische Universit\u00e4t Berlin",
        "lat": 52.52437,
        "lon": 13.41053,
        "id": "https://openalex.org/I4577782"
      },
      {
        "count": 6,
        "name": "University of M\u00fcnster",
        "lat": 51.96236,
        "lon": 7.62571,
        "id": "https://openalex.org/I22465464"
      },
      {
        "count": 6,
        "name": "GFZ Helmholtz Centre for Geosciences",
        "lat": 52.39886,
        "lon": 13.06566,
        "id": "https://openalex.org/I4210152878"
      },
      {
        "count": 6,
        "name": "GEOMAR Helmholtz Centre for Ocean Research Kiel",
        "lat": 54.32133,
        "lon": 10.13489,
        "id": "https://openalex.org/I34403800"
      },
      {
        "count": 6,
        "name": "Comprehensive Cancer Center Erlangen",
        "lat": 49.59978103637695,
        "lon": 11.012350082397461,
        "id": "https://openalex.org/I4210149747"
      },
      {
        "count": 6,
        "name": "German Primate Center",
        "lat": 51.561729431152344,
        "lon": 9.954649925231934,
        "id": "https://openalex.org/I2801496451"
      },
      {
        "count": 6,
        "name": "International University Institute",
        "lat": 50.895912170410156,
        "lon": 14.80541706085205,
        "id": "https://openalex.org/I4210149070"
      },
      {
        "count": 6,
        "name": "Rostocker Zentrum zur Erforschung des Demografischen Wandels",
        "lat": 54.09394836425781,
        "lon": 12.110870361328125,
        "id": "https://openalex.org/I4210089912"
      },
      {
        "count": 6,
        "name": "Kirchhoff (Germany)",
        "lat": 51.377899169921875,
        "lon": 7.6952009201049805,
        "id": "https://openalex.org/I4210128947"
      },
      {
        "count": 6,
        "name": "Osnabr\u00fcck University",
        "lat": 52.272640228271484,
        "lon": 8.049799919128418,
        "id": "https://openalex.org/I170658231"
      },
      {
        "count": 5,
        "name": "IZA - Institute of Labor Economics",
        "lat": 50.73438,
        "lon": 7.09549,
        "id": "https://openalex.org/I197518295"
      },
      {
        "count": 5,
        "name": "Philipps University of Marburg",
        "lat": 50.80904006958008,
        "lon": 8.770689964294434,
        "id": "https://openalex.org/I161103922"
      },
      {
        "count": 5,
        "name": "Senckenberg Biodiversity and Climate Research Centre",
        "lat": 50.11552,
        "lon": 8.68417,
        "id": "https://openalex.org/I4210112860"
      },
      {
        "count": 5,
        "name": "FH Aachen",
        "lat": 50.75486755371094,
        "lon": 6.098174095153809,
        "id": "https://openalex.org/I99977706"
      },
      {
        "count": 5,
        "name": "Freie Universit\u00e4t Berlin",
        "lat": 52.52437,
        "lon": 13.41053,
        "id": "https://openalex.org/I75951250"
      },
      {
        "count": 5,
        "name": "University Children's Hospital T\u00fcbingen",
        "lat": 48.52960968017578,
        "lon": 9.038100242614746,
        "id": "https://openalex.org/I4210125796"
      },
      {
        "count": 5,
        "name": "University of Wuppertal",
        "lat": 51.25627136230469,
        "lon": 7.148159980773926,
        "id": "https://openalex.org/I167360494"
      },
      {
        "count": 5,
        "name": "University Hospital Heidelberg",
        "lat": 49.40768,
        "lon": 8.69079,
        "id": "https://openalex.org/I2802164966"
      },
      {
        "count": 5,
        "name": "Leibniz Centre for Agricultural Landscape Research",
        "lat": 52.50703811645508,
        "lon": 14.137160301208496,
        "id": "https://openalex.org/I4210113030"
      },
      {
        "count": 5,
        "name": "University Hospital Carl Gustav Carus",
        "lat": 51.05089,
        "lon": 13.73832,
        "id": "https://openalex.org/I4210162051"
      },
      {
        "count": 4,
        "name": "Mercator Research Institute on Global Commons and Climate Change",
        "lat": 52.48136520385742,
        "lon": 13.355925559997559,
        "id": "https://openalex.org/I4210086490"
      },
      {
        "count": 4,
        "name": "Heidelberg Institute for Theoretical Studies",
        "lat": 49.40768051147461,
        "lon": 8.690790176391602,
        "id": "https://openalex.org/I71030271"
      },
      {
        "count": 4,
        "name": "University of Bayreuth",
        "lat": 49.947818756103516,
        "lon": 11.578929901123047,
        "id": "https://openalex.org/I54009628"
      },
      {
        "count": 4,
        "name": "Institut f\u00fcr Hochschulforschung",
        "lat": 51.8661,
        "lon": 12.64973,
        "id": "https://openalex.org/I4210146570"
      },
      {
        "count": 4,
        "name": "Leipzig University",
        "lat": 51.33962,
        "lon": 12.37129,
        "id": "https://openalex.org/I926574661"
      },
      {
        "count": 4,
        "name": "Leuphana University of L\u00fcneburg",
        "lat": 53.25090026855469,
        "lon": 10.414090156555176,
        "id": "https://openalex.org/I113456305"
      },
      {
        "count": 4,
        "name": "Max-Planck-Institut f\u00fcr Kohlenforschung",
        "lat": 51.43217849731445,
        "lon": 6.879670143127441,
        "id": "https://openalex.org/I4210090782"
      },
      {
        "count": 4,
        "name": "Fraunhofer Institute for Cognitive Systems",
        "lat": 48.13743,
        "lon": 11.57549,
        "id": "https://openalex.org/I4210127444"
      },
      {
        "count": 4,
        "name": "Th\u00fcringer Landessternwarte Tautenburg",
        "lat": 50.99119,
        "lon": 11.71571,
        "id": "https://openalex.org/I4210147535"
      },
      {
        "count": 4,
        "name": "Max Planck Institute for Ornithology",
        "lat": 47.966670989990234,
        "lon": 11.300000190734863,
        "id": "https://openalex.org/I4210087166"
      },
      {
        "count": 4,
        "name": "Max Planck Institute for Physics",
        "lat": 48.137428283691406,
        "lon": 11.57548999786377,
        "id": "https://openalex.org/I4210089019"
      },
      {
        "count": 4,
        "name": "Norsk Hydro (Germany)",
        "lat": 51.07499694824219,
        "lon": 6.62347412109375,
        "id": "https://openalex.org/I185298739"
      },
      {
        "count": 3,
        "name": "Bavarian Forest National Park",
        "lat": 48.95948028564453,
        "lon": 13.394845962524414,
        "id": "https://openalex.org/I2800389101"
      },
      {
        "count": 3,
        "name": "Climate Analytics",
        "lat": 52.50090408325195,
        "lon": 13.412924766540527,
        "id": "https://openalex.org/I4210124905"
      },
      {
        "count": 3,
        "name": "Technische Universit\u00e4t Braunschweig",
        "lat": 52.26594,
        "lon": 10.52673,
        "id": "https://openalex.org/I94509681"
      },
      {
        "count": 3,
        "name": "European Association of Social Psychology",
        "lat": 51.96236,
        "lon": 7.62571,
        "id": "https://openalex.org/I4210116846"
      },
      {
        "count": 3,
        "name": "Max Planck Institute for Human Cognitive and Brain Sciences",
        "lat": 51.33573532104492,
        "lon": 12.388835906982422,
        "id": "https://openalex.org/I4210130445"
      },
      {
        "count": 3,
        "name": "Wild Chimpanzee Foundation",
        "lat": 51.32117462158203,
        "lon": 12.39283275604248,
        "id": "https://openalex.org/I4210108835"
      },
      {
        "count": 3,
        "name": "Senckenberg Research Institute and Natural History Museum Frankfurt/M",
        "lat": 50.11552,
        "lon": 8.68417,
        "id": "https://openalex.org/I2802565870"
      },
      {
        "count": 3,
        "name": "Leibniz University Hannover",
        "lat": 52.37052,
        "lon": 9.73322,
        "id": "https://openalex.org/I114112103"
      },
      {
        "count": 3,
        "name": "Max Planck Institute of Animal Behavior",
        "lat": 47.768104553222656,
        "lon": 8.996386528015137,
        "id": "https://openalex.org/I4210114058"
      },
      {
        "count": 3,
        "name": "Hochschule Osnabr\u00fcck",
        "lat": 52.51918029785156,
        "lon": 7.322110176086426,
        "id": "https://openalex.org/I4210159638"
      },
      {
        "count": 3,
        "name": "Helmholtz Center for Information Security",
        "lat": 49.23262023925781,
        "lon": 7.009819984436035,
        "id": "https://openalex.org/I4210128801"
      },
      {
        "count": 3,
        "name": "MBN Research Center",
        "lat": 50.17475891113281,
        "lon": 8.631531715393066,
        "id": "https://openalex.org/I4210136858"
      },
      {
        "count": 3,
        "name": "Kliniken Essen-Mitte",
        "lat": 51.44248580932617,
        "lon": 7.030252933502197,
        "id": "https://openalex.org/I4210146447"
      },
      {
        "count": 2,
        "name": "Leibniz Institute of Photonic Technology",
        "lat": 50.92878,
        "lon": 11.5899,
        "id": "https://openalex.org/I2801349226"
      },
      {
        "count": 2,
        "name": "Max Planck Institute for the Science of Human History",
        "lat": 50.92877960205078,
        "lon": 11.589900016784668,
        "id": "https://openalex.org/I4210161060"
      },
      {
        "count": 2,
        "name": "University of Hohenheim",
        "lat": 48.782318115234375,
        "lon": 9.177020072937012,
        "id": "https://openalex.org/I110079840"
      },
      {
        "count": 2,
        "name": "Leibniz Institute for Zoo and Wildlife Research",
        "lat": 52.52436828613281,
        "lon": 13.410530090332031,
        "id": "https://openalex.org/I4210154298"
      },
      {
        "count": 2,
        "name": "Institute for Biodiversity",
        "lat": 49.02922439575195,
        "lon": 12.10599422454834,
        "id": "https://openalex.org/I4210096541"
      },
      {
        "count": 2,
        "name": "Universit\u00e4tsklinikum Erlangen",
        "lat": 49.59098815917969,
        "lon": 11.007829666137695,
        "id": "https://openalex.org/I4210088053"
      },
      {
        "count": 2,
        "name": "Rhine-Waal University of Applied Sciences",
        "lat": 51.793460845947266,
        "lon": 6.142871856689453,
        "id": "https://openalex.org/I70865968"
      },
      {
        "count": 2,
        "name": "Klinikum L\u00fcneburg",
        "lat": 53.2402458190918,
        "lon": 10.395578384399414,
        "id": "https://openalex.org/I4210117663"
      },
      {
        "count": 2,
        "name": "Brandenburg University of Technology Cottbus-Senftenberg",
        "lat": 51.52517,
        "lon": 14.00164,
        "id": "https://openalex.org/I51783024"
      },
      {
        "count": 2,
        "name": "Max Planck Institute for Biogeochemistry",
        "lat": 50.92877960205078,
        "lon": 11.589900016784668,
        "id": "https://openalex.org/I4210154168"
      },
      {
        "count": 2,
        "name": "Darmstadt University of Applied Sciences",
        "lat": 49.87166976928711,
        "lon": 8.650270462036133,
        "id": "https://openalex.org/I107257983"
      },
      {
        "count": 2,
        "name": "Leibniz Institute for Analytical Sciences - ISAS",
        "lat": 51.51493835449219,
        "lon": 7.466000080108643,
        "id": "https://openalex.org/I4210121365"
      },
      {
        "count": 2,
        "name": "Leibniz Institute of Freshwater Ecology and Inland Fisheries",
        "lat": 52.52436828613281,
        "lon": 13.410530090332031,
        "id": "https://openalex.org/I4210116314"
      },
      {
        "count": 2,
        "name": "Center for NanoScience",
        "lat": 48.137428283691406,
        "lon": 11.57548999786377,
        "id": "https://openalex.org/I2801304276"
      },
      {
        "count": 2,
        "name": "Physikalisch-Technische Bundesanstalt",
        "lat": 52.26594,
        "lon": 10.52673,
        "id": "https://openalex.org/I1285933455"
      },
      {
        "count": 2,
        "name": "Helmholtz-Zentrum Hereon",
        "lat": 53.43574905395508,
        "lon": 10.377900123596191,
        "id": "https://openalex.org/I4210139239"
      },
      {
        "count": 2,
        "name": "EBS University of Business and Law",
        "lat": 50.08258056640625,
        "lon": 8.249320030212402,
        "id": "https://openalex.org/I90697900"
      },
      {
        "count": 2,
        "name": "German Cancer Research Center",
        "lat": 49.40768,
        "lon": 8.69079,
        "id": "https://openalex.org/I17937529"
      },
      {
        "count": 2,
        "name": "Hearing4all",
        "lat": 53.15182876586914,
        "lon": 8.166773796081543,
        "id": "https://openalex.org/I4210144375"
      },
      {
        "count": 2,
        "name": "Jade University of Applied Sciences",
        "lat": 53.52997970581055,
        "lon": 8.112529754638672,
        "id": "https://openalex.org/I10889393"
      },
      {
        "count": 2,
        "name": "Continental (Germany)",
        "lat": 52.395484924316406,
        "lon": 9.729541778564453,
        "id": "https://openalex.org/I147869694"
      },
      {
        "count": 2,
        "name": "University of Kaiserslautern",
        "lat": 49.44300079345703,
        "lon": 7.771609783172607,
        "id": "https://openalex.org/I153267046"
      },
      {
        "count": 2,
        "name": "Charit\u00e9 - Universit\u00e4tsmedizin Berlin",
        "lat": 52.52437,
        "lon": 13.41053,
        "id": "https://openalex.org/I7877124"
      },
      {
        "count": 2,
        "name": "Berlin Institute of Health at Charit\u00e9 - Universit\u00e4tsmedizin Berlin",
        "lat": 52.52436828613281,
        "lon": 13.410530090332031,
        "id": "https://openalex.org/I4210139777"
      },
      {
        "count": 2,
        "name": "German Sport University Cologne",
        "lat": 50.93333,
        "lon": 6.95,
        "id": "https://openalex.org/I137533716"
      },
      {
        "count": 2,
        "name": "Nordwestdeutsche Forstliche Versuchsanstalt",
        "lat": 51.53443145751953,
        "lon": 9.932279586791992,
        "id": "https://openalex.org/I4210143040"
      },
      {
        "count": 2,
        "name": "Frankfurt Zoological Society",
        "lat": 50.11580276489258,
        "lon": 8.699424743652344,
        "id": "https://openalex.org/I84676521"
      },
      {
        "count": 2,
        "name": "Urologische Klinik M\u00fcnchen",
        "lat": 48.10963821411133,
        "lon": 11.415098190307617,
        "id": "https://openalex.org/I4210163238"
      },
      {
        "count": 2,
        "name": "Groundwater Center",
        "lat": 51.01701736450195,
        "lon": 13.729578971862793,
        "id": "https://openalex.org/I4210108421"
      },
      {
        "count": 2,
        "name": "Universit\u00e4t Greifswald",
        "lat": 54.08905,
        "lon": 13.40244,
        "id": "https://openalex.org/I36522303"
      },
      {
        "count": 2,
        "name": "Julius K\u00fchn-Institut",
        "lat": 51.78843,
        "lon": 11.15006,
        "id": "https://openalex.org/I1326965316"
      },
      {
        "count": 2,
        "name": "Heinrich Heine University D\u00fcsseldorf",
        "lat": 51.22172164916992,
        "lon": 6.776159763336182,
        "id": "https://openalex.org/I44260953"
      },
      {
        "count": 1,
        "name": "University of Augsburg",
        "lat": 48.37154,
        "lon": 10.89851,
        "id": "https://openalex.org/I179225836"
      },
      {
        "count": 1,
        "name": "Johann Heinrich von Th\u00fcnen-Institut",
        "lat": 52.26594,
        "lon": 10.52673,
        "id": "https://openalex.org/I4210093792"
      },
      {
        "count": 1,
        "name": "Research Institute for Sustainability at GFZ",
        "lat": 52.39886,
        "lon": 13.06566,
        "id": "https://openalex.org/I4210107867"
      },
      {
        "count": 1,
        "name": "Hochschule Bremerhaven",
        "lat": 53.55357,
        "lon": 8.57553,
        "id": "https://openalex.org/I4210091436"
      },
      {
        "count": 1,
        "name": "University of L\u00fcbeck",
        "lat": 53.86893,
        "lon": 10.68729,
        "id": "https://openalex.org/I9341345"
      },
      {
        "count": 1,
        "name": "Universit\u00e4tsmedizin G\u00f6ttingen",
        "lat": 51.53443,
        "lon": 9.93228,
        "id": "https://openalex.org/I4210116730"
      },
      {
        "count": 1,
        "name": "University Hospital in Halle",
        "lat": 51.50135040283203,
        "lon": 11.936415672302246,
        "id": "https://openalex.org/I4210152429"
      },
      {
        "count": 1,
        "name": "Catholic University of Eichst\u00e4tt-Ingolstadt",
        "lat": 48.8885383605957,
        "lon": 11.196749687194824,
        "id": "https://openalex.org/I199417121"
      },
      {
        "count": 1,
        "name": "Jena University Hospital",
        "lat": 50.92877960205078,
        "lon": 11.589900016784668,
        "id": "https://openalex.org/I4210134900"
      },
      {
        "count": 1,
        "name": "Zimmer Biomet (Germany)",
        "lat": 52.40946960449219,
        "lon": 13.270167350769043,
        "id": "https://openalex.org/I4210099379"
      },
      {
        "count": 1,
        "name": "Federal Maritime and Hydrographic Agency of Germany",
        "lat": 53.55073165893555,
        "lon": 9.993020057678223,
        "id": "https://openalex.org/I2800260114"
      },
      {
        "count": 1,
        "name": "Helmholtz Institute Mainz",
        "lat": 49.992313385009766,
        "lon": 8.238344192504883,
        "id": "https://openalex.org/I4210113347"
      },
      {
        "count": 1,
        "name": "Paul Ehrlich Institut",
        "lat": 50.00630569458008,
        "lon": 8.648799896240234,
        "id": "https://openalex.org/I884002606"
      },
      {
        "count": 1,
        "name": "University of Regensburg",
        "lat": 49.01512908935547,
        "lon": 12.10161018371582,
        "id": "https://openalex.org/I60668342"
      },
      {
        "count": 1,
        "name": "Institut f\u00fcr Tier-, Natur- und Umweltethik",
        "lat": 52.46062088012695,
        "lon": 13.332018852233887,
        "id": "https://openalex.org/I4210107245"
      },
      {
        "count": 1,
        "name": "Max Planck Institute for Comparative Public Law and International Law",
        "lat": 49.4201774597168,
        "lon": 8.672901153564453,
        "id": "https://openalex.org/I4210141359"
      },
      {
        "count": 1,
        "name": "Deutsche Montan Technologie (Germany)",
        "lat": 51.46249008178711,
        "lon": 7.057742118835449,
        "id": "https://openalex.org/I4210139811"
      },
      {
        "count": 1,
        "name": "International Audio Laboratories Erlangen",
        "lat": 49.59098815917969,
        "lon": 11.007829666137695,
        "id": "https://openalex.org/I4210123192"
      },
      {
        "count": 1,
        "name": "Wismar University of Applied Sciences",
        "lat": 53.89313888549805,
        "lon": 11.452859878540039,
        "id": "https://openalex.org/I162015237"
      },
      {
        "count": 1,
        "name": "MSB Medical School Berlin",
        "lat": 52.52436828613281,
        "lon": 13.410530090332031,
        "id": "https://openalex.org/I4210091434"
      },
      {
        "count": 1,
        "name": "Federal Office of Bundeswehr Equipment, Information Technology and In-Service Support",
        "lat": 50.35356903076172,
        "lon": 7.578829765319824,
        "id": "https://openalex.org/I4210125358"
      },
      {
        "count": 1,
        "name": "Max Planck Institute for Chemical Ecology",
        "lat": 50.92877960205078,
        "lon": 11.589900016784668,
        "id": "https://openalex.org/I4210117675"
      },
      {
        "count": 1,
        "name": "Friedrich-Loeffler-Institut",
        "lat": 54.08905,
        "lon": 13.40244,
        "id": "https://openalex.org/I1310048521"
      },
      {
        "count": 1,
        "name": "Klinik und Poliklinik f\u00fcr Psychotherapie und Psychosomatik",
        "lat": 51.0503044128418,
        "lon": 13.830467224121094,
        "id": "https://openalex.org/I4210164182"
      },
      {
        "count": 1,
        "name": "FIZ Karlsruhe \u2013 Leibniz Institute for Information Infrastructure",
        "lat": 49.09181213378906,
        "lon": 8.428256034851074,
        "id": "https://openalex.org/I158675288"
      },
      {
        "count": 1,
        "name": "Klinikum Darmstadt",
        "lat": 49.87166976928711,
        "lon": 8.650270462036133,
        "id": "https://openalex.org/I4210099826"
      },
      {
        "count": 1,
        "name": "Max Planck Institute for Chemistry",
        "lat": 49.98419189453125,
        "lon": 8.27910041809082,
        "id": "https://openalex.org/I4210113422"
      },
      {
        "count": 1,
        "name": "Leibniz ScienceCampus Primate Cognition",
        "lat": 51.56142044067383,
        "lon": 9.954317092895508,
        "id": "https://openalex.org/I4210151565"
      },
      {
        "count": 1,
        "name": "Goethe Institut",
        "lat": 48.13743,
        "lon": 11.57549,
        "id": "https://openalex.org/I4210111344"
      },
      {
        "count": 1,
        "name": "German Oceanographic Museum",
        "lat": 54.30911,
        "lon": 13.0818,
        "id": "https://openalex.org/I4210160110"
      },
      {
        "count": 1,
        "name": "Kliniken des Bezirks Oberbayern",
        "lat": 48.14455032348633,
        "lon": 11.586126327514648,
        "id": "https://openalex.org/I4210102126"
      },
      {
        "count": 1,
        "name": "Staatliches Museum f\u00fcr Naturkunde Stuttgart",
        "lat": 48.805301666259766,
        "lon": 9.190299987792969,
        "id": "https://openalex.org/I2799483237"
      },
      {
        "count": 1,
        "name": "Max Planck Institute for Intelligent Systems",
        "lat": 48.782318115234375,
        "lon": 9.177020072937012,
        "id": "https://openalex.org/I4210135521"
      },
      {
        "count": 1,
        "name": "Leibniz Institute for Educational Trajectories",
        "lat": 49.89873,
        "lon": 10.90067,
        "id": "https://openalex.org/I4210148174"
      },
      {
        "count": 1,
        "name": "Witten/Herdecke University",
        "lat": 51.44362,
        "lon": 7.35258,
        "id": "https://openalex.org/I155976169"
      },
      {
        "count": 1,
        "name": "Brain (Germany)",
        "lat": 49.72811508178711,
        "lon": 8.610663414001465,
        "id": "https://openalex.org/I4210113520"
      },
      {
        "count": 1,
        "name": "Giessen School of Theology",
        "lat": 50.58727,
        "lon": 8.67554,
        "id": "https://openalex.org/I4210148049"
      },
      {
        "count": 1,
        "name": "University Medical Center Freiburg",
        "lat": 47.9959,
        "lon": 7.85222,
        "id": "https://openalex.org/I2801240073"
      },
      {
        "count": 1,
        "name": "Facility for Antiproton and Ion Research",
        "lat": 49.87167,
        "lon": 8.65027,
        "id": "https://openalex.org/I4210154384"
      },
      {
        "count": 1,
        "name": "Sozialstiftung Bamberg",
        "lat": 49.89873,
        "lon": 10.90067,
        "id": "https://openalex.org/I4210147328"
      },
      {
        "count": 1,
        "name": "Nordakademie",
        "lat": 53.75395965576172,
        "lon": 9.653389930725098,
        "id": "https://openalex.org/I4210088491"
      },
      {
        "count": 1,
        "name": "University of Education Freiburg",
        "lat": 47.98097229003906,
        "lon": 7.892666816711426,
        "id": "https://openalex.org/I4210122148"
      },
      {
        "count": 1,
        "name": "Mician (Germany)",
        "lat": 53.07756042480469,
        "lon": 8.80163288116455,
        "id": "https://openalex.org/I4210165000"
      },
      {
        "count": 1,
        "name": "Helmholtz Association of German Research Centres",
        "lat": 52.52437,
        "lon": 13.41053,
        "id": "https://openalex.org/I1305996414"
      },
      {
        "count": 1,
        "name": "German Centre for Cardiovascular Research",
        "lat": 52.52437,
        "lon": 13.41053,
        "id": "https://openalex.org/I4210127591"
      },
      {
        "count": 1,
        "name": "Leibniz Institute for Catalysis",
        "lat": 54.08869934082031,
        "lon": 12.14048957824707,
        "id": "https://openalex.org/I4210114429"
      },
      {
        "count": 1,
        "name": "Otto-von-Guericke University Magdeburg",
        "lat": 52.12773,
        "lon": 11.62916,
        "id": "https://openalex.org/I95793202"
      },
      {
        "count": 1,
        "name": "MSH Medical School Hamburg \u2013 University of Applied Sciences and Medical University",
        "lat": 53.55073165893555,
        "lon": 9.993020057678223,
        "id": "https://openalex.org/I4210088462"
      },
      {
        "count": 1,
        "name": "Museum f\u00fcr Naturkunde",
        "lat": 52.530555725097656,
        "lon": 13.379132270812988,
        "id": "https://openalex.org/I1313606977"
      },
      {
        "count": 1,
        "name": "Zoological Research Museum Alexander Koenig",
        "lat": 50.734378814697266,
        "lon": 7.095489978790283,
        "id": "https://openalex.org/I4210099549"
      },
      {
        "count": 1,
        "name": "Institut f\u00fcr Bauwerkserhaltung und Sanierung (Germany)",
        "lat": 52.459228515625,
        "lon": 13.293108940124512,
        "id": "https://openalex.org/I4210152782"
      },
      {
        "count": 1,
        "name": "University of Passau",
        "lat": 48.56650161743164,
        "lon": 13.431220054626465,
        "id": "https://openalex.org/I186354981"
      },
      {
        "count": 1,
        "name": "Excellence Cluster Universe",
        "lat": 48.24896,
        "lon": 11.65101,
        "id": "https://openalex.org/I4210144898"
      },
      {
        "count": 1,
        "name": "Universit\u00e4t Ulm",
        "lat": 48.39841,
        "lon": 9.99155,
        "id": "https://openalex.org/I196349391"
      },
      {
        "count": 1,
        "name": "European Neuroscience Institute G\u00f6ttingen",
        "lat": 51.55847930908203,
        "lon": 9.95389175415039,
        "id": "https://openalex.org/I4210117099"
      },
      {
        "count": 1,
        "name": "Fraunhofer Research Institution for Energy Infrastructures and Geotechnologies IEG",
        "lat": 51.48165,
        "lon": 7.21648,
        "id": "https://openalex.org/I4210098353"
      },
      {
        "count": 1,
        "name": "Carl von Ossietzky Universit\u00e4t Oldenburg",
        "lat": 53.14118,
        "lon": 8.21467,
        "id": "https://openalex.org/I129877168"
      },
      {
        "count": 1,
        "name": "Max Planck Institute for Solar System Research",
        "lat": 51.56121826171875,
        "lon": 9.948860168457031,
        "id": "https://openalex.org/I4210116419"
      },
      {
        "count": 1,
        "name": "NEC (Germany)",
        "lat": 49.406246185302734,
        "lon": 8.685185432434082,
        "id": "https://openalex.org/I4210164122"
      },
      {
        "count": 1,
        "name": "Paderborn University",
        "lat": 51.719051361083984,
        "lon": 8.754389762878418,
        "id": "https://openalex.org/I206945453"
      },
      {
        "count": 1,
        "name": "Senckenberg - Leibniz Institution for Biodiversity and Earth System Research",
        "lat": 50.11552,
        "lon": 8.68417,
        "id": "https://openalex.org/I2802697327"
      },
      {
        "count": 1,
        "name": "Helmholtz Centre for Environmental Research",
        "lat": 51.33962,
        "lon": 12.37129,
        "id": "https://openalex.org/I137479271"
      },
      {
        "count": 1,
        "name": "Roto Frank (Germany)",
        "lat": 48.69955825805664,
        "lon": 9.145602226257324,
        "id": "https://openalex.org/I4210114964"
      },
      {
        "count": 1,
        "name": "Daimler (Germany)",
        "lat": 48.782318115234375,
        "lon": 9.177020072937012,
        "id": "https://openalex.org/I891521709"
      },
      {
        "count": 1,
        "name": "University Hospital Ulm",
        "lat": 48.39841079711914,
        "lon": 9.99155044555664,
        "id": "https://openalex.org/I4210155144"
      },
      {
        "count": 1,
        "name": "Sonic Healthcare (Germany)",
        "lat": 52.479312896728516,
        "lon": 13.308374404907227,
        "id": "https://openalex.org/I4210130015"
      },
      {
        "count": 1,
        "name": "D\u00fcsseldorf University Hospital",
        "lat": 51.19879913330078,
        "lon": 6.789299964904785,
        "id": "https://openalex.org/I4210089242"
      },
      {
        "count": 1,
        "name": "Heidelberg Engineering (Germany)",
        "lat": 49.40768051147461,
        "lon": 8.690790176391602,
        "id": "https://openalex.org/I4210127657"
      },
      {
        "count": 1,
        "name": "Leipzig University of Applied Sciences",
        "lat": 51.33961868286133,
        "lon": 12.37129020690918,
        "id": "https://openalex.org/I147765834"
      }
    ]
  },
  {
    "name": "AU",
    "country_code": "AU",
    "count": 1909,
    "lat": -34.243816202079245,
    "lon": 144.94181041300814,
    "institutions": [
      {
        "count": 98,
        "name": "Monash University",
        "lat": -37.814,
        "lon": 144.96332,
        "id": "https://openalex.org/I56590836"
      },
      {
        "count": 86,
        "name": "The University of Melbourne",
        "lat": -37.814,
        "lon": 144.96332,
        "id": "https://openalex.org/I165779595"
      },
      {
        "count": 81,
        "name": "University of Western Australia",
        "lat": -31.95224,
        "lon": 115.8614,
        "id": "https://openalex.org/I177877127"
      },
      {
        "count": 81,
        "name": "University of Sydney",
        "lat": -33.86785,
        "lon": 151.20732,
        "id": "https://openalex.org/I129604602"
      },
      {
        "count": 78,
        "name": "Australian National University",
        "lat": -35.2834587097168,
        "lon": 149.12806701660156,
        "id": "https://openalex.org/I118347636"
      },
      {
        "count": 72,
        "name": "University of Tasmania",
        "lat": -42.87936,
        "lon": 147.32941,
        "id": "https://openalex.org/I129801699"
      },
      {
        "count": 69,
        "name": "ARC Centre of Excellence for All-sky Astrophysics",
        "lat": -33.86785,
        "lon": 151.20732,
        "id": "https://openalex.org/I4210155937"
      },
      {
        "count": 69,
        "name": "UNSW Sydney",
        "lat": -33.86785,
        "lon": 151.20732,
        "id": "https://openalex.org/I31746571"
      },
      {
        "count": 67,
        "name": "Australian Catholic University",
        "lat": -27.46794,
        "lon": 153.02809,
        "id": "https://openalex.org/I86695891"
      },
      {
        "count": 61,
        "name": "Macquarie University",
        "lat": -33.86785,
        "lon": 151.20732,
        "id": "https://openalex.org/I99043593"
      },
      {
        "count": 53,
        "name": "The University of Queensland",
        "lat": -27.46794,
        "lon": 153.02809,
        "id": "https://openalex.org/I165143802"
      },
      {
        "count": 50,
        "name": "Victoria University",
        "lat": -37.81399917602539,
        "lon": 144.96331787109375,
        "id": "https://openalex.org/I71270174"
      },
      {
        "count": 45,
        "name": "International Centre for Radio Astronomy Research",
        "lat": -31.98418,
        "lon": 115.81603,
        "id": "https://openalex.org/I4210160376"
      },
      {
        "count": 35,
        "name": "Griffith University",
        "lat": -27.46794,
        "lon": 153.02809,
        "id": "https://openalex.org/I11701301"
      },
      {
        "count": 33,
        "name": "ASTRO-3D",
        "lat": -33.276405334472656,
        "lon": 115.72318267822266,
        "id": "https://openalex.org/I4210089853"
      },
      {
        "count": 32,
        "name": "Deakin University",
        "lat": -37.84978,
        "lon": 145.11901,
        "id": "https://openalex.org/I149704539"
      },
      {
        "count": 31,
        "name": "Queensland University of Technology",
        "lat": -27.46794,
        "lon": 153.02809,
        "id": "https://openalex.org/I160993911"
      },
      {
        "count": 30,
        "name": "University of Newcastle Australia",
        "lat": -32.92953,
        "lon": 151.7801,
        "id": "https://openalex.org/I78757542"
      },
      {
        "count": 29,
        "name": "Curtin University",
        "lat": -31.95224,
        "lon": 115.8614,
        "id": "https://openalex.org/I205640436"
      },
      {
        "count": 29,
        "name": "Cancer Council Victoria",
        "lat": -37.81399917602539,
        "lon": 144.96331787109375,
        "id": "https://openalex.org/I196466984"
      },
      {
        "count": 28,
        "name": "CSIRO Oceans and Atmosphere",
        "lat": -35.28346,
        "lon": 149.12807,
        "id": "https://openalex.org/I1281210470"
      },
      {
        "count": 28,
        "name": "RMIT University",
        "lat": -37.80674743652344,
        "lon": 144.9625701904297,
        "id": "https://openalex.org/I82951845"
      },
      {
        "count": 27,
        "name": "Australian Astronomical Observatory",
        "lat": -33.86785,
        "lon": 151.20732,
        "id": "https://openalex.org/I2802629923"
      },
      {
        "count": 26,
        "name": "Commonwealth Scientific and Industrial Research Organisation",
        "lat": -35.28346,
        "lon": 149.12807,
        "id": "https://openalex.org/I1292875679"
      },
      {
        "count": 26,
        "name": "Australian Antarctic Division",
        "lat": -42.87936019897461,
        "lon": 147.32940673828125,
        "id": "https://openalex.org/I1330876588"
      },
      {
        "count": 26,
        "name": "Astronomy and Space",
        "lat": -33.77958679199219,
        "lon": 151.10061645507812,
        "id": "https://openalex.org/I4210146430"
      },
      {
        "count": 25,
        "name": "Peter MacCallum Cancer Centre",
        "lat": -37.81399917602539,
        "lon": 144.96331787109375,
        "id": "https://openalex.org/I2800555584"
      },
      {
        "count": 23,
        "name": "University of Technology Sydney",
        "lat": -33.86785,
        "lon": 151.20732,
        "id": "https://openalex.org/I114017466"
      },
      {
        "count": 22,
        "name": "Hunter Medical Research Institute",
        "lat": -32.92039108276367,
        "lon": 151.69261169433594,
        "id": "https://openalex.org/I4210087646"
      },
      {
        "count": 20,
        "name": "University of Wollongong",
        "lat": -34.42399978637695,
        "lon": 150.89344787597656,
        "id": "https://openalex.org/I204824540"
      },
      {
        "count": 20,
        "name": "James Cook University",
        "lat": -19.26639,
        "lon": 146.80569,
        "id": "https://openalex.org/I86467917"
      },
      {
        "count": 19,
        "name": "Hunter New England Local Health District",
        "lat": -32.922149658203125,
        "lon": 151.7142791748047,
        "id": "https://openalex.org/I4210154888"
      },
      {
        "count": 17,
        "name": "La Trobe University",
        "lat": -37.7217903137207,
        "lon": 145.04791259765625,
        "id": "https://openalex.org/I196829312"
      },
      {
        "count": 16,
        "name": "University of Adelaide",
        "lat": -34.92866,
        "lon": 138.59863,
        "id": "https://openalex.org/I5681781"
      },
      {
        "count": 16,
        "name": "Western Sydney University",
        "lat": -33.59955978393555,
        "lon": 150.7514190673828,
        "id": "https://openalex.org/I63525965"
      },
      {
        "count": 16,
        "name": "Australian Institute of Aboriginal and Torres Strait Islander Studies",
        "lat": -35.2834587097168,
        "lon": 149.12806701660156,
        "id": "https://openalex.org/I1302338503"
      },
      {
        "count": 16,
        "name": "The George Institute for Global Health",
        "lat": -33.86785,
        "lon": 151.20732,
        "id": "https://openalex.org/I4210110309"
      },
      {
        "count": 16,
        "name": "Walter and Eliza Hall Institute of Medical Research",
        "lat": -37.81399917602539,
        "lon": 144.96331787109375,
        "id": "https://openalex.org/I196021976"
      },
      {
        "count": 15,
        "name": "Astronomy Australia",
        "lat": -37.83290100097656,
        "lon": 145.0366973876953,
        "id": "https://openalex.org/I4210135469"
      },
      {
        "count": 14,
        "name": "University of South Australia",
        "lat": -34.92866,
        "lon": 138.59863,
        "id": "https://openalex.org/I170239107"
      },
      {
        "count": 14,
        "name": "The Heart Research Institute",
        "lat": -33.89596176147461,
        "lon": 151.17892456054688,
        "id": "https://openalex.org/I2801241159"
      },
      {
        "count": 12,
        "name": "Swinburne University of Technology",
        "lat": -37.814,
        "lon": 144.96332,
        "id": "https://openalex.org/I57093077"
      },
      {
        "count": 12,
        "name": "ARC Centre of Excellence for Climate System Science",
        "lat": -33.86785125732422,
        "lon": 151.2073211669922,
        "id": "https://openalex.org/I4210120769"
      },
      {
        "count": 12,
        "name": "Westmead Hospital",
        "lat": -33.86785,
        "lon": 151.20732,
        "id": "https://openalex.org/I2803024705"
      },
      {
        "count": 11,
        "name": "Flinders University",
        "lat": -34.92866,
        "lon": 138.59863,
        "id": "https://openalex.org/I169541294"
      },
      {
        "count": 11,
        "name": "Bureau of Meteorology",
        "lat": -37.814,
        "lon": 144.96332,
        "id": "https://openalex.org/I1286406326"
      },
      {
        "count": 11,
        "name": "Quantum (Australia)",
        "lat": -37.74561309814453,
        "lon": 144.9260711669922,
        "id": "https://openalex.org/I4210091585"
      },
      {
        "count": 11,
        "name": "Neuroscience Research Australia",
        "lat": -33.86785125732422,
        "lon": 151.2073211669922,
        "id": "https://openalex.org/I83657090"
      },
      {
        "count": 10,
        "name": "Westmead Institute for Medical Research",
        "lat": -33.86785,
        "lon": 151.20732,
        "id": "https://openalex.org/I4210145422"
      },
      {
        "count": 9,
        "name": "Mount Stromlo Observatory",
        "lat": -35.32027816772461,
        "lon": 149.00694274902344,
        "id": "https://openalex.org/I3129270235"
      },
      {
        "count": 8,
        "name": "Charles Darwin University",
        "lat": -12.461130142211914,
        "lon": 130.8418426513672,
        "id": "https://openalex.org/I29894533"
      },
      {
        "count": 8,
        "name": "AgriBio",
        "lat": -37.72049331665039,
        "lon": 145.04837036132812,
        "id": "https://openalex.org/I4210149301"
      },
      {
        "count": 8,
        "name": "Menzies School of Health Research",
        "lat": -12.461130142211914,
        "lon": 130.8418426513672,
        "id": "https://openalex.org/I4210085939"
      },
      {
        "count": 8,
        "name": "Thales (Australia)",
        "lat": -33.8090705871582,
        "lon": 151.0331573486328,
        "id": "https://openalex.org/I2801356230"
      },
      {
        "count": 7,
        "name": "Centre for Marine Socioecology",
        "lat": -42.87936019897461,
        "lon": 147.32940673828125,
        "id": "https://openalex.org/I4210118312"
      },
      {
        "count": 6,
        "name": "Diabetes Australia",
        "lat": -35.28346,
        "lon": 149.12807,
        "id": "https://openalex.org/I2799803081"
      },
      {
        "count": 5,
        "name": "University of the Sunshine Coast",
        "lat": -26.65682,
        "lon": 153.07955,
        "id": "https://openalex.org/I174025329"
      },
      {
        "count": 5,
        "name": "Edith Cowan University",
        "lat": -31.952239990234375,
        "lon": 115.86139678955078,
        "id": "https://openalex.org/I12079687"
      },
      {
        "count": 5,
        "name": "Ecosystem Sciences",
        "lat": -35.2749137878418,
        "lon": 149.11331176757812,
        "id": "https://openalex.org/I4210166020"
      },
      {
        "count": 5,
        "name": "University of Southern Queensland",
        "lat": -27.56056022644043,
        "lon": 151.953857421875,
        "id": "https://openalex.org/I185523456"
      },
      {
        "count": 5,
        "name": "Florey Institute of Neuroscience and Mental Health",
        "lat": -37.814,
        "lon": 144.96332,
        "id": "https://openalex.org/I242743682"
      },
      {
        "count": 5,
        "name": "Integrated Marine Observing System",
        "lat": -42.87936019897461,
        "lon": 147.32940673828125,
        "id": "https://openalex.org/I4210100852"
      },
      {
        "count": 4,
        "name": "Southern Cross University",
        "lat": -28.813539505004883,
        "lon": 153.2772979736328,
        "id": "https://openalex.org/I66809481"
      },
      {
        "count": 4,
        "name": "Cancer Australia",
        "lat": -33.86785,
        "lon": 151.20732,
        "id": "https://openalex.org/I4210087542"
      },
      {
        "count": 4,
        "name": "Cancer Institute of New South Wales",
        "lat": -33.89641189575195,
        "lon": 151.1931915283203,
        "id": "https://openalex.org/I2801862688"
      },
      {
        "count": 4,
        "name": "Central Queensland University",
        "lat": -23.322704315185547,
        "lon": 150.5207977294922,
        "id": "https://openalex.org/I74899385"
      },
      {
        "count": 4,
        "name": "Sutherland Hospital",
        "lat": -34.03721237182617,
        "lon": 151.1139678955078,
        "id": "https://openalex.org/I2799293026"
      },
      {
        "count": 4,
        "name": "The Kids Research Institute Australia",
        "lat": -31.94896,
        "lon": 115.84199,
        "id": "https://openalex.org/I175234967"
      },
      {
        "count": 4,
        "name": "Australian National Herbarium",
        "lat": -35.2834587097168,
        "lon": 149.12806701660156,
        "id": "https://openalex.org/I4210130210"
      },
      {
        "count": 4,
        "name": "WaterNSW",
        "lat": -33.756370544433594,
        "lon": 150.6920623779297,
        "id": "https://openalex.org/I1334903100"
      },
      {
        "count": 3,
        "name": "Centre for Australian National Biodiversity Research",
        "lat": -35.2834587097168,
        "lon": 149.12806701660156,
        "id": "https://openalex.org/I4210100608"
      },
      {
        "count": 3,
        "name": "Environmental Earth Sciences",
        "lat": -33.81703186035156,
        "lon": 151.1826934814453,
        "id": "https://openalex.org/I4210163172"
      },
      {
        "count": 3,
        "name": "University of Canberra",
        "lat": -35.2834587097168,
        "lon": 149.12806701660156,
        "id": "https://openalex.org/I188329596"
      },
      {
        "count": 3,
        "name": "North Sydney Orthopaedic and Sports Medicine Centre",
        "lat": -33.86785,
        "lon": 151.20732,
        "id": "https://openalex.org/I4210090240"
      },
      {
        "count": 3,
        "name": "Australian Football League",
        "lat": -37.814,
        "lon": 144.96332,
        "id": "https://openalex.org/I2801674211"
      },
      {
        "count": 3,
        "name": "Cancer Council NSW",
        "lat": -33.86785125732422,
        "lon": 151.2073211669922,
        "id": "https://openalex.org/I9623796"
      },
      {
        "count": 3,
        "name": "NSW Department of Education",
        "lat": -33.86785125732422,
        "lon": 151.2073211669922,
        "id": "https://openalex.org/I1329868518"
      },
      {
        "count": 3,
        "name": "Charles Sturt University",
        "lat": -33.430023193359375,
        "lon": 149.56556701660156,
        "id": "https://openalex.org/I153230381"
      },
      {
        "count": 3,
        "name": "Concord Repatriation General Hospital",
        "lat": -33.86785,
        "lon": 151.20732,
        "id": "https://openalex.org/I2800249840"
      },
      {
        "count": 3,
        "name": "Melbourne Bioinformatics",
        "lat": -37.81399917602539,
        "lon": 144.96331787109375,
        "id": "https://openalex.org/I347366330"
      },
      {
        "count": 3,
        "name": "Women's and Children's Hospital",
        "lat": -34.92866,
        "lon": 138.59863,
        "id": "https://openalex.org/I2801308011"
      },
      {
        "count": 3,
        "name": "Royal North Shore Hospital",
        "lat": -33.82344,
        "lon": 151.19836,
        "id": "https://openalex.org/I2800079252"
      },
      {
        "count": 3,
        "name": "Australian Mathematical Sciences Institute",
        "lat": -37.79835510253906,
        "lon": 144.962158203125,
        "id": "https://openalex.org/I2802631561"
      },
      {
        "count": 2,
        "name": "Royal Botanic Garden Sydney",
        "lat": -33.86785125732422,
        "lon": 151.2073211669922,
        "id": "https://openalex.org/I4210130668"
      },
      {
        "count": 2,
        "name": "Australian Institute of Marine Science",
        "lat": -19.26639,
        "lon": 146.80569,
        "id": "https://openalex.org/I1328540965"
      },
      {
        "count": 2,
        "name": "Australian National Fish Collection",
        "lat": -42.88627624511719,
        "lon": 147.3346710205078,
        "id": "https://openalex.org/I4210145531"
      },
      {
        "count": 2,
        "name": "University of New England",
        "lat": -30.50123,
        "lon": 151.66553,
        "id": "https://openalex.org/I90745801"
      },
      {
        "count": 2,
        "name": "Materials Science & Engineering",
        "lat": -35.28346,
        "lon": 149.12807,
        "id": "https://openalex.org/I4210129794"
      },
      {
        "count": 2,
        "name": "The University of Notre Dame Australia",
        "lat": -32.05632019042969,
        "lon": 115.74556732177734,
        "id": "https://openalex.org/I93396115"
      },
      {
        "count": 2,
        "name": "Mental Health Research Institute",
        "lat": -37.81399917602539,
        "lon": 144.96331787109375,
        "id": "https://openalex.org/I139829854"
      },
      {
        "count": 2,
        "name": "Murdoch Children's Research Institute",
        "lat": -37.814,
        "lon": 144.96332,
        "id": "https://openalex.org/I4210150290"
      },
      {
        "count": 2,
        "name": "Federation University",
        "lat": -37.566219329833984,
        "lon": 143.8495635986328,
        "id": "https://openalex.org/I149672521"
      },
      {
        "count": 2,
        "name": "New South Wales Department of Health",
        "lat": -33.8390007019043,
        "lon": 151.2071990966797,
        "id": "https://openalex.org/I1311436738"
      },
      {
        "count": 2,
        "name": "Foundation for Alcohol Research and Education",
        "lat": -35.2834587097168,
        "lon": 149.12806701660156,
        "id": "https://openalex.org/I4210092690"
      },
      {
        "count": 2,
        "name": "Cancer Council Western Australia",
        "lat": -31.94849967956543,
        "lon": 115.82679748535156,
        "id": "https://openalex.org/I4210102710"
      },
      {
        "count": 2,
        "name": "Melbourne Clinic",
        "lat": -37.8150634765625,
        "lon": 144.99964904785156,
        "id": "https://openalex.org/I4210150069"
      },
      {
        "count": 2,
        "name": "Australian Sports Commission",
        "lat": -35.23798,
        "lon": 149.06627,
        "id": "https://openalex.org/I12240146"
      },
      {
        "count": 2,
        "name": "Translational Research Institute",
        "lat": -27.48855,
        "lon": 153.03655,
        "id": "https://openalex.org/I1308309334"
      },
      {
        "count": 2,
        "name": "St Vincents Institute of Medical Research",
        "lat": -37.79839,
        "lon": 144.97833,
        "id": "https://openalex.org/I77826658"
      },
      {
        "count": 2,
        "name": "Flinders Medical Centre",
        "lat": -35.02204132080078,
        "lon": 138.56814575195312,
        "id": "https://openalex.org/I2802931750"
      },
      {
        "count": 2,
        "name": "Australian Wildlife Conservancy",
        "lat": -31.946815490722656,
        "lon": 115.82942199707031,
        "id": "https://openalex.org/I1302438520"
      },
      {
        "count": 2,
        "name": "Gold Coast Hospital",
        "lat": -27.972400665283203,
        "lon": 153.41000366210938,
        "id": "https://openalex.org/I2800155786"
      },
      {
        "count": 2,
        "name": "Bond University",
        "lat": -28.07398223876953,
        "lon": 153.41648864746094,
        "id": "https://openalex.org/I120125038"
      },
      {
        "count": 2,
        "name": "QIMR Berghofer Medical Research Institute",
        "lat": -27.467939376831055,
        "lon": 153.02809143066406,
        "id": "https://openalex.org/I217937681"
      },
      {
        "count": 2,
        "name": "Prince of Wales Hospital",
        "lat": -33.918609619140625,
        "lon": 151.23878479003906,
        "id": "https://openalex.org/I4210108821"
      },
      {
        "count": 2,
        "name": "King Edward Memorial Hospital",
        "lat": -31.949878692626953,
        "lon": 115.8189926147461,
        "id": "https://openalex.org/I2801351171"
      },
      {
        "count": 2,
        "name": "St John of God Subiaco Hospital",
        "lat": -31.941715240478516,
        "lon": 115.8259048461914,
        "id": "https://openalex.org/I1292109108"
      },
      {
        "count": 1,
        "name": "Department of Environment, Land, Water and Planning",
        "lat": -37.80855941772461,
        "lon": 144.97396850585938,
        "id": "https://openalex.org/I4210148235"
      },
      {
        "count": 1,
        "name": "Mater Adult Hospital",
        "lat": -27.484905242919922,
        "lon": 153.02687072753906,
        "id": "https://openalex.org/I4210161304"
      },
      {
        "count": 1,
        "name": "Queen Elizabeth Hospital",
        "lat": -34.92866134643555,
        "lon": 138.5986328125,
        "id": "https://openalex.org/I4210099777"
      },
      {
        "count": 1,
        "name": "The Royal Melbourne Hospital",
        "lat": -37.81399917602539,
        "lon": 144.96331787109375,
        "id": "https://openalex.org/I1320473756"
      },
      {
        "count": 1,
        "name": "Wollongong Hospital",
        "lat": -34.42308044433594,
        "lon": 150.8824005126953,
        "id": "https://openalex.org/I2801395776"
      },
      {
        "count": 1,
        "name": "New South Wales Department of Primary Industries",
        "lat": -33.28397,
        "lon": 149.10018,
        "id": "https://openalex.org/I2801559191"
      },
      {
        "count": 1,
        "name": "South Australia Pathology",
        "lat": -34.9346809387207,
        "lon": 138.63174438476562,
        "id": "https://openalex.org/I107656453"
      },
      {
        "count": 1,
        "name": "Coffs Harbour City Council",
        "lat": -30.19763946533203,
        "lon": 153.04238891601562,
        "id": "https://openalex.org/I2844755612"
      },
      {
        "count": 1,
        "name": "Alfred Health",
        "lat": -37.845542907714844,
        "lon": 144.98162841796875,
        "id": "https://openalex.org/I4210163178"
      },
      {
        "count": 1,
        "name": "Australian National Wildlife Collection",
        "lat": -35.21839141845703,
        "lon": 149.125,
        "id": "https://openalex.org/I4210158368"
      },
      {
        "count": 1,
        "name": "Garvan Institute of Medical Research",
        "lat": -33.878360748291016,
        "lon": 151.22164916992188,
        "id": "https://openalex.org/I136750679"
      },
      {
        "count": 1,
        "name": "Children's Medical Research Institute",
        "lat": -33.86785,
        "lon": 151.20732,
        "id": "https://openalex.org/I146584863"
      },
      {
        "count": 1,
        "name": "Cairns Hospital",
        "lat": -16.91214370727539,
        "lon": 145.76849365234375,
        "id": "https://openalex.org/I2800926667"
      },
      {
        "count": 1,
        "name": "Hornsby Ku-ring-gai Hospital",
        "lat": -33.70244,
        "lon": 151.09931,
        "id": "https://openalex.org/I2800903792"
      },
      {
        "count": 1,
        "name": "Australian Research Data Commons",
        "lat": -37.81399917602539,
        "lon": 144.96331787109375,
        "id": "https://openalex.org/I4210128169"
      },
      {
        "count": 1,
        "name": "Plant Industry",
        "lat": -35.27392578125,
        "lon": 149.11447143554688,
        "id": "https://openalex.org/I4210152679"
      },
      {
        "count": 1,
        "name": "Australian Research Council",
        "lat": -35.28346,
        "lon": 149.12807,
        "id": "https://openalex.org/I1337719021"
      },
      {
        "count": 1,
        "name": "Kimberley Aboriginal Medical Services",
        "lat": -17.95439338684082,
        "lon": 122.24039459228516,
        "id": "https://openalex.org/I4210153277"
      },
      {
        "count": 1,
        "name": "Camden and Campbelltown Hospitals",
        "lat": -34.07816696166992,
        "lon": 150.80572509765625,
        "id": "https://openalex.org/I1281592970"
      },
      {
        "count": 1,
        "name": "South Australian Health and Medical Research Institute",
        "lat": -34.921268463134766,
        "lon": 138.5897216796875,
        "id": "https://openalex.org/I4210137740"
      },
      {
        "count": 1,
        "name": "Institute for Urban Indigenous Health",
        "lat": -27.43631,
        "lon": 153.02882,
        "id": "https://openalex.org/I4210166691"
      },
      {
        "count": 1,
        "name": "Victorian Curriculum and Assessment Authority",
        "lat": -37.80910873413086,
        "lon": 144.97154235839844,
        "id": "https://openalex.org/I2802046543"
      },
      {
        "count": 1,
        "name": "National Centre for Vocational Education Research",
        "lat": -34.91831970214844,
        "lon": 138.58811950683594,
        "id": "https://openalex.org/I4210148671"
      },
      {
        "count": 1,
        "name": "Alcohol and Drug Foundation",
        "lat": -37.79798,
        "lon": 144.94512,
        "id": "https://openalex.org/I2802490183"
      },
      {
        "count": 1,
        "name": "O'Brien Institute",
        "lat": -37.80687713623047,
        "lon": 144.9761962890625,
        "id": "https://openalex.org/I4210090910"
      },
      {
        "count": 1,
        "name": "Queensland Academy of Sport",
        "lat": -27.57234764099121,
        "lon": 153.0647735595703,
        "id": "https://openalex.org/I81471050"
      },
      {
        "count": 1,
        "name": "Australian Institute of Health and Welfare",
        "lat": -35.28346,
        "lon": 149.12807,
        "id": "https://openalex.org/I1294126068"
      },
      {
        "count": 1,
        "name": "Monash Health",
        "lat": -37.81399917602539,
        "lon": 144.96331787109375,
        "id": "https://openalex.org/I4210121067"
      },
      {
        "count": 1,
        "name": "Smith Family",
        "lat": -33.86785,
        "lon": 151.20732,
        "id": "https://openalex.org/I2801167990"
      },
      {
        "count": 1,
        "name": "Geoscience Australia",
        "lat": -35.2834587097168,
        "lon": 149.12806701660156,
        "id": "https://openalex.org/I1331816111"
      },
      {
        "count": 1,
        "name": "Sports Medicine Australia",
        "lat": -37.84248352050781,
        "lon": 144.96023559570312,
        "id": "https://openalex.org/I2802464748"
      },
      {
        "count": 1,
        "name": "South Australian Research and Development Institute",
        "lat": -34.92866134643555,
        "lon": 138.5986328125,
        "id": "https://openalex.org/I2800034446"
      },
      {
        "count": 1,
        "name": "Department of Climate Change, Energy, the Environment and Water",
        "lat": -35.28346,
        "lon": 149.12807,
        "id": "https://openalex.org/I4387155966"
      },
      {
        "count": 1,
        "name": "NSW Forestry Corporation",
        "lat": -30.296260833740234,
        "lon": 153.11351013183594,
        "id": "https://openalex.org/I4210115090"
      },
      {
        "count": 1,
        "name": "Wesley Hospital",
        "lat": -27.478113174438477,
        "lon": 152.99794006347656,
        "id": "https://openalex.org/I2800284578"
      },
      {
        "count": 1,
        "name": "Movember Foundation",
        "lat": -37.844146728515625,
        "lon": 144.9943389892578,
        "id": "https://openalex.org/I2801551368"
      },
      {
        "count": 1,
        "name": "Parks Victoria",
        "lat": -37.815914154052734,
        "lon": 144.95770263671875,
        "id": "https://openalex.org/I2799393461"
      },
      {
        "count": 1,
        "name": "Tharawal Aboriginal",
        "lat": -34.08332443237305,
        "lon": 150.83241271972656,
        "id": "https://openalex.org/I4210095329"
      },
      {
        "count": 1,
        "name": "Cancer Trials Australia",
        "lat": -37.80020523071289,
        "lon": 144.956787109375,
        "id": "https://openalex.org/I4210101350"
      },
      {
        "count": 1,
        "name": "Royal Prince Alfred Hospital",
        "lat": -33.86785,
        "lon": 151.20732,
        "id": "https://openalex.org/I2799732068"
      },
      {
        "count": 1,
        "name": "Institute for Musculoskeletal Health",
        "lat": -33.8896598815918,
        "lon": 151.18173217773438,
        "id": "https://openalex.org/I4210116254"
      },
      {
        "count": 1,
        "name": "Sydney Local Health District",
        "lat": -33.88965,
        "lon": 151.17642,
        "id": "https://openalex.org/I4210140513"
      },
      {
        "count": 1,
        "name": "ARC Centre of Excellence for Gravitational Wave Discovery",
        "lat": -37.82200622558594,
        "lon": 145.03892517089844,
        "id": "https://openalex.org/I4210126807"
      },
      {
        "count": 1,
        "name": "WA Country Health Service",
        "lat": -31.95482635498047,
        "lon": 115.86803436279297,
        "id": "https://openalex.org/I4210116675"
      },
      {
        "count": 1,
        "name": "Family Court of Australia",
        "lat": -33.8178,
        "lon": 151.00348,
        "id": "https://openalex.org/I2802906549"
      },
      {
        "count": 1,
        "name": "Australian Regenerative Medicine Institute",
        "lat": -37.91049575805664,
        "lon": 145.12930297851562,
        "id": "https://openalex.org/I2801239119"
      },
      {
        "count": 1,
        "name": "Department of Biodiversity, Conservation and Attractions",
        "lat": -31.996131896972656,
        "lon": 115.88388061523438,
        "id": "https://openalex.org/I4210150845"
      },
      {
        "count": 1,
        "name": "Barwon Health",
        "lat": -38.14710998535156,
        "lon": 144.36068725585938,
        "id": "https://openalex.org/I132157203"
      },
      {
        "count": 1,
        "name": "Victorian Clinical Genetics Services",
        "lat": -37.78824996948242,
        "lon": 144.9300079345703,
        "id": "https://openalex.org/I4210109019"
      },
      {
        "count": 1,
        "name": "Royal Children's Hospital",
        "lat": -37.814,
        "lon": 144.96332,
        "id": "https://openalex.org/I1321649718"
      },
      {
        "count": 1,
        "name": "Melbourne Health",
        "lat": -37.814,
        "lon": 144.96332,
        "id": "https://openalex.org/I4210158168"
      },
      {
        "count": 1,
        "name": "Royal Hospital for Women",
        "lat": -33.86785,
        "lon": 151.20732,
        "id": "https://openalex.org/I2799851941"
      },
      {
        "count": 1,
        "name": "Agriculture Victoria Services (Australia)",
        "lat": -37.72392272949219,
        "lon": 145.0532989501953,
        "id": "https://openalex.org/I4210156052"
      },
      {
        "count": 1,
        "name": "Victorian Cancer Biobank",
        "lat": -37.803123474121094,
        "lon": 144.96383666992188,
        "id": "https://openalex.org/I4210113226"
      },
      {
        "count": 1,
        "name": "Society for Mental Health Research",
        "lat": -37.781124114990234,
        "lon": 144.94757080078125,
        "id": "https://openalex.org/I4210145527"
      },
      {
        "count": 1,
        "name": "Department of Environment Water and Natural Resources",
        "lat": -34.92866,
        "lon": 138.59863,
        "id": "https://openalex.org/I4210156467"
      },
      {
        "count": 1,
        "name": "University Colleges Australia",
        "lat": -37.859737396240234,
        "lon": 145.0671844482422,
        "id": "https://openalex.org/I4210125166"
      }
    ]
  },
  {
    "name": "GB",
    "country_code": "GB",
    "count": 5397,
    "lat": 53.15657409883136,
    "lon": -1.959257468934644,
    "institutions": [
      {
        "count": 762,
        "name": "University of Manchester",
        "lat": 53.48095,
        "lon": -2.23743,
        "id": "https://openalex.org/I28407311"
      },
      {
        "count": 543,
        "name": "University of Edinburgh",
        "lat": 55.95206,
        "lon": -3.19648,
        "id": "https://openalex.org/I98677209"
      },
      {
        "count": 261,
        "name": "University of Liverpool",
        "lat": 53.41058,
        "lon": -2.97794,
        "id": "https://openalex.org/I146655781"
      },
      {
        "count": 259,
        "name": "Lancaster University",
        "lat": 54.04648971557617,
        "lon": -2.799880027770996,
        "id": "https://openalex.org/I67415387"
      },
      {
        "count": 255,
        "name": "University of Sheffield",
        "lat": 53.38297,
        "lon": -1.4659,
        "id": "https://openalex.org/I91136226"
      },
      {
        "count": 217,
        "name": "University of Sussex",
        "lat": 50.8283805847168,
        "lon": -0.13946999609470367,
        "id": "https://openalex.org/I162608824"
      },
      {
        "count": 184,
        "name": "University of Birmingham",
        "lat": 52.48142,
        "lon": -1.89983,
        "id": "https://openalex.org/I79619799"
      },
      {
        "count": 170,
        "name": "Rutherford Appleton Laboratory",
        "lat": 51.60928,
        "lon": -1.24214,
        "id": "https://openalex.org/I1286704778"
      },
      {
        "count": 165,
        "name": "Royal Holloway University of London",
        "lat": 51.43157958984375,
        "lon": -0.5523899793624878,
        "id": "https://openalex.org/I184558857"
      },
      {
        "count": 154,
        "name": "University of Warwick",
        "lat": 52.40656,
        "lon": -1.51217,
        "id": "https://openalex.org/I39555362"
      },
      {
        "count": 151,
        "name": "University of Oxford",
        "lat": 51.75222,
        "lon": -1.25596,
        "id": "https://openalex.org/I40120149"
      },
      {
        "count": 135,
        "name": "University of Glasgow",
        "lat": 55.86515,
        "lon": -4.25763,
        "id": "https://openalex.org/I7882870"
      },
      {
        "count": 123,
        "name": "University College London",
        "lat": 51.50853,
        "lon": -0.12574,
        "id": "https://openalex.org/I45129253"
      },
      {
        "count": 115,
        "name": "King's College London",
        "lat": 51.50853,
        "lon": -0.12574,
        "id": "https://openalex.org/I183935753"
      },
      {
        "count": 108,
        "name": "University of Bristol",
        "lat": 51.45523,
        "lon": -2.59665,
        "id": "https://openalex.org/I36234482"
      },
      {
        "count": 105,
        "name": "University of Exeter",
        "lat": 50.72359848022461,
        "lon": -3.527509927749634,
        "id": "https://openalex.org/I23923803"
      },
      {
        "count": 103,
        "name": "University of Cambridge",
        "lat": 52.2,
        "lon": 0.11667,
        "id": "https://openalex.org/I241749"
      },
      {
        "count": 65,
        "name": "University of Leeds",
        "lat": 53.79648,
        "lon": -1.54785,
        "id": "https://openalex.org/I130828816"
      },
      {
        "count": 59,
        "name": "Oldham Council",
        "lat": 53.54231643676758,
        "lon": -2.117724895477295,
        "id": "https://openalex.org/I4210164339"
      },
      {
        "count": 56,
        "name": "Newcastle University",
        "lat": 54.97328,
        "lon": -1.61396,
        "id": "https://openalex.org/I84884186"
      },
      {
        "count": 53,
        "name": "Met Office",
        "lat": 50.7236,
        "lon": -3.52751,
        "id": "https://openalex.org/I1293035123"
      },
      {
        "count": 50,
        "name": "University of St Andrews",
        "lat": 56.33871,
        "lon": -2.79902,
        "id": "https://openalex.org/I16835326"
      },
      {
        "count": 50,
        "name": "Royal Observatory",
        "lat": 55.923057556152344,
        "lon": -3.1877779960632324,
        "id": "https://openalex.org/I4210105583"
      },
      {
        "count": 44,
        "name": "University of Hertfordshire",
        "lat": 51.76337814331055,
        "lon": -0.22418999671936035,
        "id": "https://openalex.org/I141584323"
      },
      {
        "count": 43,
        "name": "Durham University",
        "lat": 54.77676,
        "lon": -1.57566,
        "id": "https://openalex.org/I190082696"
      },
      {
        "count": 42,
        "name": "Swansea University",
        "lat": 51.62079,
        "lon": -3.94323,
        "id": "https://openalex.org/I39586589"
      },
      {
        "count": 39,
        "name": "University of Stirling",
        "lat": 56.1190299987793,
        "lon": -3.9368200302124023,
        "id": "https://openalex.org/I12093191"
      },
      {
        "count": 36,
        "name": "Imperial College London",
        "lat": 51.50853,
        "lon": -0.12574,
        "id": "https://openalex.org/I47508984"
      },
      {
        "count": 32,
        "name": "Cardiff University",
        "lat": 51.48,
        "lon": -3.18,
        "id": "https://openalex.org/I79510175"
      },
      {
        "count": 29,
        "name": "University of York",
        "lat": 53.95763,
        "lon": -1.08271,
        "id": "https://openalex.org/I52099693"
      },
      {
        "count": 28,
        "name": "UK Astronomy Technology Centre",
        "lat": 55.92373275756836,
        "lon": -3.187859058380127,
        "id": "https://openalex.org/I49611733"
      },
      {
        "count": 28,
        "name": "Euclid Network",
        "lat": 51.534732818603516,
        "lon": -0.11852099746465683,
        "id": "https://openalex.org/I2802846174"
      },
      {
        "count": 27,
        "name": "University of Southampton",
        "lat": 50.90395,
        "lon": -1.40428,
        "id": "https://openalex.org/I43439940"
      },
      {
        "count": 27,
        "name": "University of Nottingham",
        "lat": 52.9536,
        "lon": -1.15047,
        "id": "https://openalex.org/I142263535"
      },
      {
        "count": 23,
        "name": "Nottingham Trent University",
        "lat": 52.9536018371582,
        "lon": -1.1504700183868408,
        "id": "https://openalex.org/I52590639"
      },
      {
        "count": 21,
        "name": "Heriot-Watt University",
        "lat": 55.95206069946289,
        "lon": -3.1964800357818604,
        "id": "https://openalex.org/I32062511"
      },
      {
        "count": 19,
        "name": "University of Surrey",
        "lat": 51.23536,
        "lon": -0.57427,
        "id": "https://openalex.org/I28290843"
      },
      {
        "count": 17,
        "name": "National Oceanography Centre",
        "lat": 50.90394973754883,
        "lon": -1.4042799472808838,
        "id": "https://openalex.org/I197940685"
      },
      {
        "count": 17,
        "name": "Dolphin Computer Access (United Kingdom)",
        "lat": 52.22247314453125,
        "lon": -2.1988298892974854,
        "id": "https://openalex.org/I4210124796"
      },
      {
        "count": 15,
        "name": "Queen's University Belfast",
        "lat": 54.59682,
        "lon": -5.92541,
        "id": "https://openalex.org/I126231945"
      },
      {
        "count": 15,
        "name": "Edinburgh Napier University",
        "lat": 55.95206069946289,
        "lon": -3.1964800357818604,
        "id": "https://openalex.org/I251738"
      },
      {
        "count": 15,
        "name": "Loughborough University",
        "lat": 52.76667022705078,
        "lon": -1.2000000476837158,
        "id": "https://openalex.org/I143804889"
      },
      {
        "count": 15,
        "name": "University of Leicester",
        "lat": 52.63859939575195,
        "lon": -1.1316900253295898,
        "id": "https://openalex.org/I153648349"
      },
      {
        "count": 15,
        "name": "British Antarctic Survey",
        "lat": 52.21296310424805,
        "lon": 0.07980100065469742,
        "id": "https://openalex.org/I1319328641"
      },
      {
        "count": 14,
        "name": "Northumbria University",
        "lat": 54.97328186035156,
        "lon": -1.6139600276947021,
        "id": "https://openalex.org/I32394136"
      },
      {
        "count": 14,
        "name": "European Centre for Medium-Range Weather Forecasts",
        "lat": 51.45624923706055,
        "lon": -0.9711300134658813,
        "id": "https://openalex.org/I154986956"
      },
      {
        "count": 13,
        "name": "Manchester Metropolitan University",
        "lat": 53.48094940185547,
        "lon": -2.2374300956726074,
        "id": "https://openalex.org/I11983389"
      },
      {
        "count": 13,
        "name": "University of Bath",
        "lat": 51.3751,
        "lon": -2.36172,
        "id": "https://openalex.org/I51601045"
      },
      {
        "count": 13,
        "name": "University of Aberdeen",
        "lat": 57.1436882019043,
        "lon": -2.098140001296997,
        "id": "https://openalex.org/I195460627"
      },
      {
        "count": 13,
        "name": "University of Lancashire",
        "lat": 53.76282,
        "lon": -2.70452,
        "id": "https://openalex.org/I185852735"
      },
      {
        "count": 12,
        "name": "Liverpool John Moores University",
        "lat": 53.410579681396484,
        "lon": -2.977940082550049,
        "id": "https://openalex.org/I63098007"
      },
      {
        "count": 11,
        "name": "University of Reading",
        "lat": 51.45624923706055,
        "lon": -0.9711300134658813,
        "id": "https://openalex.org/I71052956"
      },
      {
        "count": 10,
        "name": "University of Essex",
        "lat": 51.88920974731445,
        "lon": 0.9042099714279175,
        "id": "https://openalex.org/I110002522"
      },
      {
        "count": 10,
        "name": "The Open University",
        "lat": 52.04172134399414,
        "lon": -0.7558299899101257,
        "id": "https://openalex.org/I204136569"
      },
      {
        "count": 9,
        "name": "University of Portsmouth",
        "lat": 50.798988342285156,
        "lon": -1.091249942779541,
        "id": "https://openalex.org/I63072094"
      },
      {
        "count": 9,
        "name": "Conservation Leadership Programme",
        "lat": 52.20181655883789,
        "lon": 0.12356799840927124,
        "id": "https://openalex.org/I4210145576"
      },
      {
        "count": 9,
        "name": "St Michael\u2019s Hospital",
        "lat": 51.66233444213867,
        "lon": -0.08539199829101562,
        "id": "https://openalex.org/I4210139167"
      },
      {
        "count": 9,
        "name": "Warburtons (United Kingdom)",
        "lat": 53.59165573120117,
        "lon": -2.4265639781951904,
        "id": "https://openalex.org/I4210096651"
      },
      {
        "count": 9,
        "name": "Cicely Saunders International",
        "lat": 51.46866226196289,
        "lon": -0.09377899765968323,
        "id": "https://openalex.org/I4210136574"
      },
      {
        "count": 9,
        "name": "Langley Green Hospital",
        "lat": 51.1318473815918,
        "lon": -0.18867400288581848,
        "id": "https://openalex.org/I4210149974"
      },
      {
        "count": 8,
        "name": "Armagh Observatory & Planetarium",
        "lat": 54.349998474121094,
        "lon": -6.666669845581055,
        "id": "https://openalex.org/I2799845800"
      },
      {
        "count": 8,
        "name": "National Physical Laboratory",
        "lat": 51.50852966308594,
        "lon": -0.12574000656604767,
        "id": "https://openalex.org/I134421475"
      },
      {
        "count": 8,
        "name": "Great Ormond Street Hospital",
        "lat": 51.50852966308594,
        "lon": -0.12574000656604767,
        "id": "https://openalex.org/I2800129641"
      },
      {
        "count": 8,
        "name": "Sustainable Energy Systems (United Kingdom)",
        "lat": 53.78736114501953,
        "lon": -2.9838860034942627,
        "id": "https://openalex.org/I4210161967"
      },
      {
        "count": 7,
        "name": "Stockholm Environment Institute",
        "lat": 51.78076171875,
        "lon": -1.2676199674606323,
        "id": "https://openalex.org/I1340161457"
      },
      {
        "count": 7,
        "name": "University of Hull",
        "lat": 53.744598388671875,
        "lon": -0.33524999022483826,
        "id": "https://openalex.org/I191240316"
      },
      {
        "count": 7,
        "name": "Queen Mary University of London",
        "lat": 51.50853,
        "lon": -0.12574,
        "id": "https://openalex.org/I166337079"
      },
      {
        "count": 7,
        "name": "Natural Environment Research Council",
        "lat": 51.55796813964844,
        "lon": -1.7811599969863892,
        "id": "https://openalex.org/I141816643"
      },
      {
        "count": 7,
        "name": "Edinburgh Cancer Research",
        "lat": 55.95206069946289,
        "lon": -3.1964800357818604,
        "id": "https://openalex.org/I2802581871"
      },
      {
        "count": 7,
        "name": "The George Institute for Global Health",
        "lat": 51.50853,
        "lon": -0.12574,
        "id": "https://openalex.org/I183874623"
      },
      {
        "count": 6,
        "name": "University of Kent",
        "lat": 51.27904,
        "lon": 1.07992,
        "id": "https://openalex.org/I20581793"
      },
      {
        "count": 6,
        "name": "University of Plymouth",
        "lat": 50.37152862548828,
        "lon": -4.143050193786621,
        "id": "https://openalex.org/I897542642"
      },
      {
        "count": 6,
        "name": "Marine Biological Association of the United Kingdom",
        "lat": 50.37152862548828,
        "lon": -4.143050193786621,
        "id": "https://openalex.org/I114472154"
      },
      {
        "count": 6,
        "name": "Institute of Cancer Research",
        "lat": 51.50852966308594,
        "lon": -0.12574000656604767,
        "id": "https://openalex.org/I142947616"
      },
      {
        "count": 6,
        "name": "London School of Hygiene & Tropical Medicine",
        "lat": 51.52090072631836,
        "lon": -0.1307000070810318,
        "id": "https://openalex.org/I4210089966"
      },
      {
        "count": 6,
        "name": "Centre for Environment, Fisheries and Aquaculture Science",
        "lat": 52.4752311706543,
        "lon": 1.751670002937317,
        "id": "https://openalex.org/I1332124652"
      },
      {
        "count": 6,
        "name": "Plymouth Marine Laboratory",
        "lat": 50.37152862548828,
        "lon": -4.143050193786621,
        "id": "https://openalex.org/I2802566253"
      },
      {
        "count": 6,
        "name": "Daresbury Laboratory",
        "lat": 53.344051361083984,
        "lon": -2.639923095703125,
        "id": "https://openalex.org/I2802015276"
      },
      {
        "count": 6,
        "name": "SKA Observatory",
        "lat": 53.2344856262207,
        "lon": -2.3042619228363037,
        "id": "https://openalex.org/I4210108497"
      },
      {
        "count": 6,
        "name": "NHS Ayrshire and Arran",
        "lat": 55.613948822021484,
        "lon": -4.539388179779053,
        "id": "https://openalex.org/I2799497666"
      },
      {
        "count": 6,
        "name": "Science Oxford",
        "lat": 51.751075744628906,
        "lon": -1.2386599779129028,
        "id": "https://openalex.org/I4210146410"
      },
      {
        "count": 6,
        "name": "At Bristol",
        "lat": 51.45125198364258,
        "lon": -2.599884033203125,
        "id": "https://openalex.org/I2801520950"
      },
      {
        "count": 6,
        "name": "Roslin Institute",
        "lat": 55.86589813232422,
        "lon": -3.199084997177124,
        "id": "https://openalex.org/I133960621"
      },
      {
        "count": 5,
        "name": "University of Strathclyde",
        "lat": 55.86515,
        "lon": -4.25763,
        "id": "https://openalex.org/I181647926"
      },
      {
        "count": 5,
        "name": "National Centre for Atmospheric Science",
        "lat": 53.80449295043945,
        "lon": -1.561424732208252,
        "id": "https://openalex.org/I4210112368"
      },
      {
        "count": 5,
        "name": "Science Council",
        "lat": 51.50917434692383,
        "lon": -0.13914500176906586,
        "id": "https://openalex.org/I4210129367"
      },
      {
        "count": 5,
        "name": "MRC/CSO Social and Public Health Sciences Unit",
        "lat": 55.865901947021484,
        "lon": -4.254144191741943,
        "id": "https://openalex.org/I4210112050"
      },
      {
        "count": 5,
        "name": "Aston University",
        "lat": 52.48141860961914,
        "lon": -1.8998299837112427,
        "id": "https://openalex.org/I169199633"
      },
      {
        "count": 5,
        "name": "Bangor University",
        "lat": 53.22751998901367,
        "lon": -4.129360198974609,
        "id": "https://openalex.org/I161548249"
      },
      {
        "count": 5,
        "name": "Sci-Tech Daresbury",
        "lat": 53.34546661376953,
        "lon": -2.639657974243164,
        "id": "https://openalex.org/I4210102012"
      },
      {
        "count": 5,
        "name": "Cockcroft Institute",
        "lat": 53.344722747802734,
        "lon": -2.6377780437469482,
        "id": "https://openalex.org/I191738243"
      },
      {
        "count": 5,
        "name": "Institute for Sustainability",
        "lat": 51.52841567993164,
        "lon": -0.08806300163269043,
        "id": "https://openalex.org/I4210148180"
      },
      {
        "count": 5,
        "name": "Natural History Museum",
        "lat": 51.50852966308594,
        "lon": -0.12574000656604767,
        "id": "https://openalex.org/I1336856363"
      },
      {
        "count": 5,
        "name": "University of Dundee",
        "lat": 56.46913,
        "lon": -2.97489,
        "id": "https://openalex.org/I177639307"
      },
      {
        "count": 5,
        "name": "Genomics (United Kingdom)",
        "lat": 51.75258255004883,
        "lon": -1.2669517993927002,
        "id": "https://openalex.org/I4210151791"
      },
      {
        "count": 5,
        "name": "Institute of Structural and Molecular Biology",
        "lat": 51.5229377746582,
        "lon": -0.1308206021785736,
        "id": "https://openalex.org/I4210157240"
      },
      {
        "count": 4,
        "name": "UK Centre for Ecology & Hydrology",
        "lat": 51.59982,
        "lon": -1.1248,
        "id": "https://openalex.org/I4210092773"
      },
      {
        "count": 4,
        "name": "University of Salford",
        "lat": 53.487709045410156,
        "lon": -2.2904200553894043,
        "id": "https://openalex.org/I54459138"
      },
      {
        "count": 4,
        "name": "Royal Botanic Gardens, Kew",
        "lat": 51.50852966308594,
        "lon": -0.12574000656604767,
        "id": "https://openalex.org/I2799614521"
      },
      {
        "count": 4,
        "name": "Keele University",
        "lat": 53.0,
        "lon": -2.233330011367798,
        "id": "https://openalex.org/I56007636"
      },
      {
        "count": 4,
        "name": "Microsoft Research (United Kingdom)",
        "lat": 52.19491958618164,
        "lon": 0.13490499556064606,
        "id": "https://openalex.org/I4210164937"
      },
      {
        "count": 4,
        "name": "Birkbeck, University of London",
        "lat": 51.50852966308594,
        "lon": -0.12574000656604767,
        "id": "https://openalex.org/I98259816"
      },
      {
        "count": 4,
        "name": "MRC Institute of Genetics and Molecular Medicine",
        "lat": 55.95206,
        "lon": -3.19648,
        "id": "https://openalex.org/I4210158898"
      },
      {
        "count": 4,
        "name": "Buxton Hospital",
        "lat": 53.249000549316406,
        "lon": -1.9080389738082886,
        "id": "https://openalex.org/I4210140207"
      },
      {
        "count": 4,
        "name": "CRUK Lung Cancer Centre of Excellence",
        "lat": 53.48094940185547,
        "lon": -2.2374300956726074,
        "id": "https://openalex.org/I4210147892"
      },
      {
        "count": 4,
        "name": "Cancer Research UK",
        "lat": 51.50853,
        "lon": -0.12574,
        "id": "https://openalex.org/I2801316944"
      },
      {
        "count": 4,
        "name": "Clatterbridge Hospital",
        "lat": 53.33278274536133,
        "lon": -3.02537202835083,
        "id": "https://openalex.org/I4210104878"
      },
      {
        "count": 4,
        "name": "Southern Health NHS Foundation Trust",
        "lat": 50.93134689331055,
        "lon": -1.5292949676513672,
        "id": "https://openalex.org/I2802073232"
      },
      {
        "count": 4,
        "name": "Geospatial Research (United Kingdom)",
        "lat": 54.77527618408203,
        "lon": -1.5867170095443726,
        "id": "https://openalex.org/I4210120373"
      },
      {
        "count": 3,
        "name": "Energy Technologies Institute",
        "lat": 52.63859939575195,
        "lon": -1.1316900253295898,
        "id": "https://openalex.org/I2800023466"
      },
      {
        "count": 3,
        "name": "Royal Society for the Protection of Birds",
        "lat": 52.129268646240234,
        "lon": -0.289249986410141,
        "id": "https://openalex.org/I135070504"
      },
      {
        "count": 3,
        "name": "Scotland's Rural College",
        "lat": 55.95206069946289,
        "lon": -3.1964800357818604,
        "id": "https://openalex.org/I260719752"
      },
      {
        "count": 3,
        "name": "Aberystwyth University",
        "lat": 52.41548156738281,
        "lon": -4.082920074462891,
        "id": "https://openalex.org/I16038530"
      },
      {
        "count": 3,
        "name": "European Bioinformatics Institute",
        "lat": 52.2,
        "lon": 0.11667,
        "id": "https://openalex.org/I1303153112"
      },
      {
        "count": 3,
        "name": "Cancer Research UK Manchester Institute",
        "lat": 53.42931365966797,
        "lon": -2.2279529571533203,
        "id": "https://openalex.org/I4210129527"
      },
      {
        "count": 3,
        "name": "British Academy",
        "lat": 51.506317138671875,
        "lon": -0.13117900490760803,
        "id": "https://openalex.org/I2800081431"
      },
      {
        "count": 3,
        "name": "University of the Highlands and Islands",
        "lat": 57.47908020019531,
        "lon": -4.223979949951172,
        "id": "https://openalex.org/I5857645"
      },
      {
        "count": 3,
        "name": "Cancer Research UK Cambridge Center",
        "lat": 52.177207946777344,
        "lon": 0.13552099466323853,
        "id": "https://openalex.org/I4210089382"
      },
      {
        "count": 3,
        "name": "MRC Clinical Trials Unit at UCL",
        "lat": 51.50852966308594,
        "lon": -0.12574000656604767,
        "id": "https://openalex.org/I4210091428"
      },
      {
        "count": 3,
        "name": "Cranfield University",
        "lat": 52.06869,
        "lon": -0.60884,
        "id": "https://openalex.org/I82284825"
      },
      {
        "count": 3,
        "name": "London School of Economics and Political Science",
        "lat": 51.50852966308594,
        "lon": -0.12574000656604767,
        "id": "https://openalex.org/I909854389"
      },
      {
        "count": 3,
        "name": "Leverhulme Trust",
        "lat": 51.50602722167969,
        "lon": -0.13286800682544708,
        "id": "https://openalex.org/I2802641067"
      },
      {
        "count": 3,
        "name": "The Salvation Army",
        "lat": 51.50852966308594,
        "lon": -0.12574000656604767,
        "id": "https://openalex.org/I4210091177"
      },
      {
        "count": 3,
        "name": "Shetland Arts",
        "lat": 60.15861892700195,
        "lon": -1.1480380296707153,
        "id": "https://openalex.org/I4210098778"
      },
      {
        "count": 3,
        "name": "Jisc",
        "lat": 51.45523,
        "lon": -2.59665,
        "id": "https://openalex.org/I80232743"
      },
      {
        "count": 3,
        "name": "Edinburgh College",
        "lat": 55.95206,
        "lon": -3.19648,
        "id": "https://openalex.org/I3130638677"
      },
      {
        "count": 3,
        "name": "European Centre for Space Applications and Telecommunications",
        "lat": 51.60927963256836,
        "lon": -1.2421400547027588,
        "id": "https://openalex.org/I4210100639"
      },
      {
        "count": 3,
        "name": "Scientific Committee on Antarctic Research",
        "lat": 52.19865036010742,
        "lon": 0.12623800337314606,
        "id": "https://openalex.org/I2802613606"
      },
      {
        "count": 3,
        "name": "London Centre for Nanotechnology",
        "lat": 51.52548599243164,
        "lon": -0.13277199864387512,
        "id": "https://openalex.org/I2801237587"
      },
      {
        "count": 2,
        "name": "Bournemouth University",
        "lat": 50.71429,
        "lon": -1.98458,
        "id": "https://openalex.org/I9300472"
      },
      {
        "count": 2,
        "name": "University of East Anglia",
        "lat": 52.627830505371094,
        "lon": 1.2983399629592896,
        "id": "https://openalex.org/I1118541"
      },
      {
        "count": 2,
        "name": "Horniman Museum and Gardens",
        "lat": 51.441864013671875,
        "lon": -0.061181001365184784,
        "id": "https://openalex.org/I1321400243"
      },
      {
        "count": 2,
        "name": "Natural England",
        "lat": 53.96076202392578,
        "lon": -1.074290156364441,
        "id": "https://openalex.org/I1326116301"
      },